지하철역,도로명주소,lat,lng
계양,인천광역시 계양구 다남로 24,37.5716093704302,126.736023400683
귤현,인천광역시 계양구 장제로 1136,37.5664130150675,126.742648844783
박촌,인천광역시 계양구 장제로 992,37.5541425077637,126.745539109643
임학,인천광역시 계양구 장제로 875,37.545061848005,126.738623134693
계산,인천광역시 계양구 경명대로 1089,37.5432900176718,126.728080590524
경인교대입구,인천광역시 계양구 계양대로 162,37.538243958289,126.722914971791
작전,인천광역시 계양구 계양대로 지하73 (작전동),37.5303126519591,126.722569611095
갈산,인천광역시 부평구 부평대로 286,37.5170000128718,126.721838636179
부평구청,인천광역시 부평구 부평대로 189,37.508225459146,126.720514883354
부평시장,인천광역시 부평구 부평대로 69,37.4984158625278,126.722264374618
부평,인천광역시 부평구 광장로 15,37.4904472744166,126.723486369222
동수,인천광역시 부평구 경인로 877,37.4851943071576,126.717952447459
부평삼거리,인천광역시 부평구 경인로 765,37.4779253401416,126.710019949872
간석오거리,인천광역시 남동구 경인로 674,37.4698162202533,126.708532308798
인천시청,인천광역시 남동구 예술로 264,37.4574194008354,126.702342121444
예술회관,인천광역시 남동구 예술로 172,37.449445911109,126.701163347511
인천터미널,인천광역시 미추홀구 예술로 85,37.4419049500121,126.699690868667
문학경기장,인천광역시 연수구 예술로 2,37.4347501506404,126.698365486864
선학,인천광역시 연수구 경원대로 480,37.4271249406263,126.698957024825
신연수,인천광역시 연수구 경원대로 368,37.4179545547451,126.693854473218
원인재,인천광역시 연수구 경원대로 285,37.4121078839743,126.68762757215
동춘,인천광역시 연수구 경원대로 180,37.4049075930219,126.680747085456
동막,인천광역시 연수구 경원대로 80,37.3982309113687,126.673697480966
캠퍼스타운,인천광역시 연수구 송도국제대로 66,37.3883566734466,126.662186746942
테크노파크,인천광역시 연수구 송도국제대로 150,37.3823969521136,126.656518754327
지식정보단지,인천광역시 연수구 인천타워대로 57,37.3781203711755,126.645382938849
인천대입구,인천광역시 연수구 인천타워대로 155,37.3860462639967,126.639388868455
센트럴파크,인천광역시 연수구 인천타워대로 240,37.393009904015,126.634731106586
국제업무지구,인천광역시 연수구 인천타워대로 334,37.4003040965747,126.630154315167
송도달빛축제공원,인천광역시 연수구 송도동 340,37.4073661874121,126.625722248644
검단오류,인천광역시 서구 검단로 187 (오류동),37.5949667216833,126.627967052742
왕길,인천광역시 서구 검단로 323 (왕길동),37.5952638428651,126.642655635516
검단사거리,인천광역시 서구 검단로 473 (왕길동),37.6016749830195,126.656458486687
마전,인천광역시 서구 완정로 68 (마전동),37.597725203253,126.667136991301
완정,인천광역시 서구 원당대로 650 (당하동),37.5929192282534,126.673029692589
독정,인천광역시 서구 서곶로 760 (백석동),37.5849694794367,126.675983102846
검암,인천광역시 서구 검바위로 4 (검암동),37.5687914198721,126.675472176848
검바위,인천광역시 서구 서곶로 492 (검암동),37.5612279500069,126.677544292945
아시아드경기장,인천광역시 서구 서곶로 382 (연희동),37.5513370579353,126.677096559118
서구청,인천광역시 서구 서곶로 294 (심곡동),37.5439541574542,126.676845402988
가정,인천광역시 서구 봉오대로 234 (가정동),37.5247080926327,126.675285050218
가정중앙시장,인천광역시 서구 가남로 400 (가정동),37.5175778857213,126.676839956398
석남,인천광역시 서구 가석로 257 (석남동),37.5070671007297,126.6762537219
서부여성회관,인천광역시 서구 가석로 169 (석남동),37.5002517272341,126.675853748671
인천가좌,인천광역시 서구 가석로 67 (가좌동),37.4900776266311,126.675272757558
가재울,인천광역시 서구 열우물로 252 (가좌동),37.4841262397417,126.683849979619
주안국가산단,인천광역시 서구 방축로 343 (가좌동),37.4740870466326,126.681231524183
주안,인천광역시 미추홀구 주안로 지하 91-1 (주안동),37.464767076602,126.679517004054
시민공원,인천광역시 미추홀구 경인로 371 (주안동),37.4583980288288,126.681082250344
석바위시장,인천광역시 미추홀구 구월로 19 (주안동),37.457821717656,126.69246050161
석천사거리,인천광역시 남동구 구월로 지하 181 (구월동),37.4567800292332,126.710496633123
모래내시장,인천광역시 남동구 구월로 지하 255 (구월동),37.4558796820132,126.719514236013
만수,인천광역시 남동구 구월로 지하 367 (만수동),37.4549623765074,126.731903680547
남동구청,인천광역시 남동구 인주대로 지하 889 (만수동),37.4481719165185,126.736636415052
인천대공원,인천광역시 남동구 수인로 3677 (장수동),37.4485356440421,126.752687902408
운연,인천광역시 남동구 매소홀로 1229 (운연동),37.4396370540864,126.759804339843
까치울,경기도 부천시 원미구 길주로 지하 626 (춘의동),37.506199783967,126.811398277418
부천종합운동장,경기도 부천시 원미구 길주로 지하 502 (춘의동),37.5054832436047,126.797430023467
춘의,경기도 부천시 원미구 길주로 지하 406 (춘의동),37.5036440878389,126.786866385135
신중동,경기도 부천시 원미구 길주로 지하 314 (중동),37.5029721503132,126.776499055771
부천시청,경기도 부천시 원미구 길주로 지하 202 (중동),37.5046422084139,126.764060373737
상동,경기도 부천시 원미구 길주로 지하 104 (상동),37.5058098548262,126.753186951602
삼산체육관,인천광역시 부평구 길주로 지하 713 (삼산동),37.5065825037123,126.741906601707
굴포천,인천광역시 부평구 길주로 지하 623 (삼산동),37.5070784308537,126.731762426823
산곡,인천광역시 부평구 길주로 지하 379 (산곡동),37.5086150723109,126.703343492272
기흥,경기도 용인시 기흥구 중부대로 460,37.2753187070748,127.115952887482
강남대,경기도 용인시 기흥구 중부대로 578,37.2701360405078,127.126063677372
지석,경기도 용인시 기흥구 어정로 28,37.2697681226764,127.136641748279
어정,경기도 용인시 기흥구 어정로 128,37.2749586678491,127.143856096151
동백,경기도 용인시 기흥구 동백죽전대로 314,37.2691508524181,127.152759663169
초당,경기도 용인시 기흥구 동백죽전대로 204,37.2608809643059,127.159488220012
삼가,경기도 용인시 처인구 중부대로 1098,37.2421122356298,127.16808757744
시청·용인대,경기도 용인시 처인구 중부대로 1199-1,37.2394751320485,127.178803125036
명지대,경기도 용인시 처인구 금학로 241,37.2381227140781,127.190277450835
김량장,경기도 용인시 처인구 금학로 315,37.237303163536,127.198702334334
운동장·송담대,경기도 용인시 처인구 금학로 409,37.2378765110411,127.209006681179
고진,경기도 용인시 처인구 경안천로 141,37.2446424855067,127.214181020912
보평,경기도 용인시 처인구 경안천로 313,37.2589480188129,127.218447354658
둔전,경기도 용인시 처인구 포곡읍 포곡로 70,37.267257320529,127.213710214899
전대·에버랜드,경기도 용인시 처인구 포곡읍 에버랜드로 143,37.2855460988656,127.219645690222
서울,서울특별시 용산구 청파로 378,37.549118478341,126.970484281315
공덕,서울특별시 마포구 마포대로 92,37.5428436189268,126.95133595616
홍대입구,서울특별시 마포구 양화로 188,37.5577458058734,126.926498328277
디지털미디어시티,서울특별시 마포구 성암로 184,37.5768239035855,126.899020186183
마곡나루,서울특별시 강서구 마곡중앙로 지하 135,37.565821296795,126.827634421592
김포공항,서울특별시 강서구 하늘길 77,37.562313207852,126.801278424065
청라국제도시,인천광역시 서구 에코로 151 (청라동),37.5551403000306,126.625410973856
영종,인천광역시 중구 백운로414번길 75,37.51210021776,126.524248890138
운서,인천광역시 중구 흰바위로59번길 26,37.4928503236659,126.493665547285
공항화물청사,인천광역시 중구 공항동로135번길 86,37.4590307212448,126.477437882407
인천공항1터미널,인천광역시 중구 공항로 271,37.4476109663729,126.452346738588
인천공항2터미널,인천광역시 중구 공항로 272,37.458350712273,126.427699293474
북한산우이,서울특별시 강북구 삼양로 지하 676,37.6629661525542,127.012702176264
솔밭공원,서울특별시 강북구 삼양로 595,37.6561546882896,127.013091650663
4.19민주묘지,서울특별시 강북구 삼양로 519,37.6494786329719,127.013478245674
가오리,서울특별시 강북구 삼양로 426,37.641713417798,127.016940435565
화계,서울특별시 강북구 삼양로 341,37.6339304770753,127.0172978051
삼양,서울특별시 강북구 삼양로 지하 259,37.626835165677,127.018198221331
삼양사거리,서울특별시 강북구 삼양로 197,37.6214280999689,127.020237295242
솔샘,서울특별시 강북구 솔샘로 지하 189,37.6202522935181,127.013408969328
북한산보국문,서울특별시 성북구 보국문로 지하 88,37.6121461272569,127.008208009279
정릉,서울특별시 성북구 아리랑로 지하 122,37.6026876819314,127.013496185509
성신여대입구,서울특별시 성북구 동소문로 지하 102 (동선동4가 1번지),37.5927179261346,127.016477649743
보문,서울특별시 성북구 보문동1가 127-6,37.5847632748488,127.019790458317
신설동,서울특별시 동대문구 신설동 132-259,37.5762451837487,127.023278761358
신사,서울특별시 강남구 강남대로 620-2,37.5171124958274,127.019494541135
논현,서울특별시 강남구 강남대로 492-2,37.5060527417451,127.023986887753
신논현,서울특별시 강남구 봉은사로 지하 102 (논현동 282번지),37.5046341625192,127.025031333453
강남,서울특별시 강남구 강남대로 지하 396,37.4981646510326,127.028307900881
양재,서울시 서초구 남부순환로 지하 2585,37.4839347328908,127.034544193436
양재시민의숲,서울특별시 서초구 매헌로 지하 116,37.4699787301083,127.038325774107
청계산입구,서울특별시 서초구 청계산로 지하 179,37.4483676641102,127.054631961335
판교,경기도 성남시 분당구 판교역로 지하 160,37.3947948422615,127.110989722725
정자,경기도 성남시 분당구 성남대로 지하 333 ,37.3661836450479,127.10806292752
미금,경기도 성남시 성남대로 지하 163 (금곡동),37.3497814901408,127.108786347263
동천,경기도 용인시 수지구 신수로 지하760,37.33789484374,127.102835754929
수지구청,경기도 용인시 수지구 풍덕천로 지하120 ,37.3224981630209,127.094668157552
성복,경기도 용인시 수지구 수지로 지하134,37.313398056231,127.080325656805
상현,경기도 용인시 수지구 광교중앙로 지하312,37.2977241059874,127.069328812487
광교중앙,경기도 수원시 영통구 도청로 지하45,37.2882586215078,127.051898779769
광교,경기도 수원시 영통구 대학로 55 신분당선 광교역,37.3020495470706,127.043123295545
샛강,서울시 영등포구 여의도동 56,37.5175286381865,126.930460204563
대방,서울시 영등포구 신길동 1376-1,37.5128688879851,126.925248506022
서울지방병무청,서울시 동작구 대방동 466-41,37.5057661785548,126.922726823845
보라매,서울시 동작구 대방동 466-49,37.5008205922635,126.920735867544
보라매공원,서울시 동작구 신대방동 722,37.4930838003695,126.919756524074
보라매병원,서울시 동작구 신대방동 425,37.4938896313487,126.924073975494
당곡,서울시 관악구 봉천동 985,37.4898907244889,126.927718112844
신림,서울시 관악구 신림동 1467-10,37.4841196518392,126.928712092948
서원,서울시 관악구 신림동 808-717,37.478259985687,126.933262205033
서울대벤처타운,서울시 관악구 신림동 110-99,37.4720905385625,126.933969602866
관악산,서울시 관악구 신림동 211-10,37.4687413067708,126.945653230284
인천국제공항,인천시 중구 공항로 271,37.4476109663729,126.452346738588
장기주차장,인천시 중구 공항로 271,37.4476109663729,126.452346738588
합동청사,인천시 중구 공항로 271,37.4476109663729,126.452346738588
파라다이스시티,인천시 중구 공항로 271,37.4476109663729,126.452346738588
워터파크,인천시 중구 공항로 271,37.4476109663729,126.452346738588
용유,인천시 중구 용유로 44,37.4321580009205,126.435243768844
양촌,경기 김포시 양촌읍 양촌역길 107,37.6416469973805,126.614793553937
구래,경기 김포시 김포한강7로 87,37.6452553945244,126.627981065827
마산,경기 김포시 김포한강3로 지하 442,37.640613168476,126.643737875864
장기,경기 김포시 김포한강1로 지하 59,37.644065302097,126.669052675
운양,경기 김포시 김포한강1로 지하 235,37.6537956778485,126.68385988844
걸포북변,경기 김포시 김포대로 지하 1040,37.6316467321152,126.705788039036
사우,경기 김포시 김포대로 지하 852,37.6203135033656,126.719808225784
풍무,경기 김포시 김포대로 지하 710,37.6124453553725,126.732415765284
고촌,경기 김포시 고촌읍 김포대로 지하 350,37.6013491365863,126.770297445655
별내별가람,경기도 남양주시 별내3로 지하 345,37.6678114479229,127.11604506255
오남,경기도 남양주시 오남읍 진건오남로 지하 929,37.70522361112,127.19110731941
진접,경기도 남양주시 진접읍 경복대로 지하 244,37.7196084023819,127.203253816017
청량리,서울특별시 동대문구 왕산로 지하205(전농동),37.5802331563072,127.045085886324
제기동,서울특별시 동대문구 왕산로 지하93(제기동),37.5781967284885,127.034690599752
동묘앞,서울특별시 종로구 종로 359(숭인동),37.5733722075697,127.01675118037
동대문,서울특별시 종로구 종로 지하302(창신동),37.5717775660734,127.011167102297
종로5가,서울특별시 종로구 종로 지하216(종로5가),37.5709075371016,127.001916647342
종로3가,서울특별시 종로구 종로 지하129(종로3가),37.5704266025836,126.99202930223
종각,서울특별시 종로구 종로 지하55(종로1가),37.5702140381269,126.983239678933
시청,서울특별시 중구 세종대로 지하101(정동),37.5654385176408,126.976983237511
을지로입구,서울특별시 중구 을지로 지하42(을지로1가),37.5660509513873,126.982372901787
을지로3가,서울특별시 중구 을지로 지하106(을지로3가),37.56626594615,126.990308356253
을지로4가,서울특별시 중구 을지로 지하178(을지로4가),37.5666369941572,126.997852780281
동대문역사문화공원,서울특별시 중구 을지로 지하279(을지로7가),37.5655895229776,127.009131498424
신당,서울특별시 중구 퇴계로 지하431-1(신당동),37.5656540317328,127.019540574485
상왕십리,서울특별시 성동구 왕십리로 지하374(하왕십리동),37.5644687111181,127.029031221392
왕십리,서울특별시 성동구 왕십리로 지하300(행당동),37.5612217415191,127.036655378283
한양대,서울특별시 성동구 왕십리로 206(행당동),37.55557788354,127.043584493543
뚝섬,서울특별시 성동구 아차산로 18(성수동1가),37.5471882244091,127.047365178682
성수,서울특별시 성동구 아차산로 100(성수동2가),37.5445023983984,127.056090471223
건대입구,서울특별시 광진구 아차산로 243(화양동),37.5404188872176,127.069173281554
구의,서울특별시 광진구 아차산로 384-1(구의동),37.5371535596228,127.086179228767
강변,서울특별시 광진구 강변역로 53(구의동),37.5351692767888,127.094664569096
잠실나루,서울특별시 송파구 오금로 20(신천동),37.5206867318088,127.103811089444
잠실,서울특별시 송파구 올림픽로 지하265(신천동),37.513859279255,127.101857941447
잠실새내,서울특별시 송파구 올림픽로 지하140(잠실동),37.5115672093323,127.086373867207
종합운동장,서울특별시 송파구 올림픽로 지하23(잠실동),37.5109692748993,127.073356018706
삼성,서울특별시 강남구 테헤란로 지하538(삼성동),37.5088619974404,127.063073009788
선릉,서울특별시 강남구 테헤란로 지하340(삼성동),37.5045028775835,127.048942471228
역삼,서울특별시 강남구 테헤란로 지하156(역삼동),37.5007162693593,127.036618203089
교대,서울특별시 서초구 서초대로 지하294(서초동),37.4928178646055,127.013838469407
서초,서울특별시 서초구 서초대로 지하233(서초동),37.4918229990093,127.007580814715
방배,서울특별시 서초구 방배로 지하80(방배동),37.4814364876589,126.997694899327
사당,서울특별시 동작구 남부순환로 지하2089(사당동),37.4765228347619,126.981408909449
낙성대,서울특별시 관악구 남부순환로 지하1928(봉천동),37.4770651843603,126.963409959152
서울대입구,서울특별시 관악구 남부순환로 지하1822(봉천동),37.4811526631844,126.952645104944
봉천,서울특별시 관악구 남부순환로 지하1721(봉천동),37.4825562153548,126.941495272047
신대방,서울특별시 동작구 대림로 2(신대방동),37.4875759745635,126.913175585996
구로디지털단지,서울특별시 구로구 도림천로 477(구로동),37.4853149237865,126.901494378412
대림,서울특별시 구로구 도림천로 351(구로동),37.4933105886136,126.8949461878
신도림,서울특별시 구로구 새말로 지하 117-21(신도림동),37.5087701449787,126.891080501385
문래,서울특별시 영등포구 당산로 지하28(문래동3가),37.5179214637526,126.894763060556
영등포구청,서울특별시 영등포구 당산로 지하121(당산동3가),37.5256996614804,126.896626898379
당산,서울특별시 영등포구 당산로 229(당산동6가),37.534956866618,126.90273071003
합정,서울특별시 마포구 양화로 지하55(서교동),37.5501152068908,126.914638180431
신촌,서울특별시 마포구 신촌로 지하90(노고산동),37.5554417865984,126.936119192554
이대,서울특별시 마포구 신촌로 지하180(염리동),37.5567980142044,126.945758201019
아현,서울특별시 마포구 신촌로 지하270(아현동),37.5573575723061,126.95603374504
충정로,서울특별시 서대문구 서소문로 지하17(충정로3가),37.5598377952439,126.964474043785
용답,서울특별시 성동구 용답길 86(용답동),37.5620049052662,127.050729309179
신답,서울특별시 성동구 천호대로 232(용답동),37.5699910562183,127.046820203556
용두,서울특별시 동대문구 천호대로 지하129(용두동),37.5739380503267,127.038031119837
도림천,서울특별시 구로구 경인로67길 160(신도림동),37.5144420510515,126.882702584468
양천구청,서울특별시 양천구 목동로3길 지하33(신정동),37.5126989358446,126.866065211751
신정네거리,서울특별시 양천구 중앙로 지하261(신정동),37.5197975266787,126.852991645059
지축,경기도 고양시 덕양구 삼송로 300(지축동),37.6496180734177,126.912167788573
구파발,서울특별시 은평구 진관2로 지하15-25 (진관동),37.6368417889316,126.918745426412
연신내,서울특별시 은평구 통일로 지하849(갈현동),37.618962003178,126.921162124977
불광,서울특별시 은평구 통일로 지하723-1(대조동),37.6102072578868,126.92998576213
녹번,서울특별시 은평구 통일로 지하602-1(녹번동),37.6007421809861,126.936019442532
홍제,서울특별시 서대문구 통일로 지하440-1(홍제동),37.5887103667691,126.944242309924
무악재,서울특별시 서대문구 통일로 지하361(홍제동),37.5823841472467,126.950322097494
독립문,서울특별시 서대문구 통일로 지하247(현저동),37.5744103589329,126.957750279047
경복궁,서울특별시 종로구 사직로 지하130(적선동),37.5758613027702,126.973062710191
안국,서울특별시 종로구 율곡로 지하62(안국동),37.5767203705556,126.985823042976
충무로,서울특별시 중구 퇴계로 지하214(필동2가),37.5612890978954,126.994207448462
동대입구,서울특별시 중구 동호로 지하256(장충동2가),37.559030224347,127.005460196954
약수,서울특별시 중구 다산로 지하122(신당동),37.5545595558163,127.010822526737
금호,서울특별시 성동구 동호로 지하104(금호동4가),37.5481125196986,127.015893753726
옥수,서울특별시 성동구 동호로 21(옥수동),37.5409877747326,127.018965435917
압구정,서울특별시 강남구 압구정로 지하172(신사동),37.5264308236177,127.028480919224
잠원,서울특별시 서초구 잠원로4길 지하46(잠원동),37.5127991148107,127.01122017966
고속터미널,서울특별시 서초구 신반포로 지하188(반포동),37.5049267445237,127.004949918697
남부터미널,서울특별시 서초구 서초중앙로 지하31(서초동),37.48514016604,127.016207055102
매봉,서울특별시 강남구 남부순환로 지하2744(도곡동),37.4869611285839,127.046614560925
도곡,서울특별시 강남구 남부순환로 지하2814(도곡동),37.4908647717187,127.05532337372
대치,서울특별시 강남구 남부순환로 지하2952(대치동),37.4945627553067,127.063430193449
학여울,서울특별시 강남구 남부순환로 지하3104(대치동),37.4967171864138,127.071718971861
대청,서울특별시 강남구 일원로 지하2(일원동),37.4937218597788,127.079493645766
일원,서울특별시 강남구 일원로 지하121(일원동),37.4840735840284,127.084451750048
수서,서울특별시 강남구 광평로 지하270(수서동),37.4873889933503,127.101859191018
가락시장,서울특별시 송파구 송파대로 지하257(가락동),37.4927440321316,127.118485741487
경찰병원,서울특별시 송파구 중대로 지하149(가락동),37.4956031419934,127.124067847413
오금,서울특별시 송파구 오금로 지하321(오금동),37.5022659793733,127.127879247544
당고개,서울특별시 노원구 상계로 305(상계동),37.6702926448965,127.079011159467
상계,서울특별시 노원구 상계로 182(상계동),37.6609038887184,127.073575379339
노원,서울특별시 노원구 상계로 69-1(상계동),37.6562677764281,127.063030448739
창동,서울특별시 도봉구 마들로11길 77(창동),37.6532174818989,127.047714954434
쌍문,서울특별시 도봉구 도봉로 지하 486-1(창동),37.6488498649136,127.034880717215
수유,서울특별시 강북구 도봉로 지하338(수유동),37.6377452337445,127.025356901379
미아,서울특별시 강북구 도봉로 지하198(미아동),37.6264436445109,127.026103434413
미아사거리,서울특별시 강북구 도봉로 지하50(미아동),37.6132861094991,127.030098418544
길음,서울특별시 성북구 동소문로 지하248(길음동),37.603183910563,127.024823216768
한성대입구,서울특별시 성북구 삼선교로 지하1(삼선동1가),37.5883948842004,127.00595033342
혜화,서울특별시 종로구 대학로 지하120(명륜4가),37.5818036223189,127.001978401429
명동,서울특별시 중구 퇴계로 지하126(충무로2가),37.5609100751113,126.985947030389
회현,서울특별시 중구 퇴계로 지하54(남창동),37.5585353196435,126.978239147279
숙대입구,서울특별시 용산구 한강대로 지하306(갈월동),37.5451939759064,126.971872351838
삼각지,서울특별시 용산구 한강대로 지하180(한강로1가),37.5345937063675,126.973011032988
신용산,서울특별시 용산구 한강대로 지하112(한강로2가),37.5296155628471,126.968215931799
이촌,서울특별시 용산구 서빙고로 지하83(용산동5가),37.522520254623,126.973683151228
동작,서울특별시 동작구 현충로 257(동작동),37.5028703671011,126.980268385443
총신대입구,서울특별시 동작구 동작대로 지하117(사당동),37.4875538278198,126.982199707405
남태령,서울특별시 서초구 과천대로 지하816(방배동),37.4648575576518,126.988656544337
방화,서울특별시 강서구 금낭화로 지하132(방화동),37.5770031079469,126.81262993382
개화산,서울특별시 강서구 양천로 22(방화동),37.572270024754,126.806001672732
송정,서울특별시 강서구 공항대로 지하33(공항동),37.5614775483136,126.811055407613
마곡,서울특별시 강서구 공항대로 지하163(마곡동),37.5601984535897,126.825547992125
발산,서울특별시 강서구 공항대로 지하267(마곡동),37.5590292668195,126.837310771961
우장산,서울특별시 강서구 강서로 지하262(화곡동),37.5490001953873,126.836408931785
화곡,서울특별시 강서구 화곡로 지하168(화곡동),37.5414336176977,126.840496450153
까치산,서울특별시 강서구 강서로 지하54(화곡동),37.5319560847746,126.846611592059
신정,서울특별시 양천구 오목로 지하179(신정동),37.5252107928783,126.857290392028
목동,서울특별시 양천구 오목로 지하245(목동),37.52619868083,126.864742584692
오목교,서울특별시 양천구 오목로 지하342(목동),37.5244500703802,126.875354626254
양평,서울특별시 영등포구 양산로 지하21(양평동2가),37.5255116853806,126.886865676125
영등포시장,서울특별시 영등포구 양산로 지하200(영등포동5가),37.5227345248969,126.904959169819
신길,서울특별시 영등포구 경인로114가길 지하9(영등포동1가),37.5176677017212,126.914336937521
여의도,서울특별시 영등포구 여의나루로 지하40(여의도동),37.5218423045786,126.924484687694
여의나루,서울특별시 영등포구 여의동로 지하343(여의도동),37.5270851610199,126.932863954929
마포,서울특별시 마포구 마포대로 지하33(도화동),37.5395837885645,126.945920370023
애오개,서울특별시 마포구 마포대로 지하210(아현동),37.5533624029594,126.95661326016
서대문,서울특별시 종로구 통일로 지하126(평동),37.565856271913,126.966637398787
광화문,서울특별시 종로구 세종대로 지하172(세종로),37.5716228232824,126.976787992565
청구,서울특별시 중구 청구로 지하77(신당동),37.5602939125022,127.013806006802
신금호,서울특별시 성동구 금호로 지하154(금호동2가),37.5545324884294,127.020064146247
행당,서울특별시 성동구 행당로 지하89(행당동),37.5572784369263,127.029232035475
마장,서울특별시 성동구 마장로 지하296(마장동),37.5662827804848,127.043163438528
답십리,서울특별시 성동구 천호대로 지하300(용답동),37.5664458277827,127.05318095956
장한평,서울특별시 동대문구 천호대로 지하405(장안동),37.5615026802954,127.064421108758
군자,서울특별시 광진구 천호대로 지하550(능동),37.5573631939521,127.079017279019
아차산,서울특별시 광진구 천호대로 지하657(능동),37.5524011361136,127.08937059931
광나루,서울특별시 광진구 아차산로 지하571(광장동),37.5452786641598,127.103686533578
천호,서울특별시 강동구 천호대로 지하997(천호동),37.5385789820645,127.123742434482
강동,서울특별시 강동구 천호대로 지하1097(천호동),37.5355205088294,127.133529582127
길동,서울특별시 강동구 양재대로 지하1480(길동),37.5378115570072,127.13999920444
굽은다리,서울특별시 강동구 양재대로 지하1572(명일동),37.5457314720664,127.142970847846
명일,서울특별시 강동구 양재대로 지하1632(명일동),37.5512602756216,127.144000929119
고덕,서울특별시 강동구 고덕로 지하253(고덕동),37.5550473189056,127.15394941502
상일동,서울특별시 강동구 고덕로 지하359(상일동),37.5566643781876,127.165829221931
둔촌동,서울특별시 강동구 양재대로 지하1369(둔촌동),37.5276413733277,127.136190298465
올림픽공원,서울특별시 송파구 양재대로 지하1233(방이동),37.5160876492782,127.130600140827
방이,서울특별시 송파구 양재대로 지하1127(방이동),37.5085564458698,127.125854699016
개롱,서울특별시 송파구 오금로 지하402(가락동),37.4978146566399,127.135158595127
거여,서울특별시 송파구 오금로 지하499(거여동),37.4932073280335,127.144032331306
강일,서울특별시 강동구 고덕로 지하456(강일동),37.5575265973614,127.175938009116
미사,경기도 하남시 미사강변동로 지하90(망월동),37.5631031857702,127.19269715129
하남풍산,경기도 하남시 덕풍서로 지하50(덕풍동),37.5520576727898,127.203870649661
하남시청,경기도 하남시 하남대로 지하820(덕풍동),37.5419015378666,127.206464400472
하남검단산,경기도 하남시 대청로 지하100(창우동),37.5397591397808,127.22344448627
마천,서울특별시 송파구 마천로57길 지하7(마천동),37.4946706182588,127.152320621872
응암,서울특별시 은평구 증산로 지하477(신사동),37.5987423282207,126.915512801302
역촌,서울특별시 은평구 서오릉로 지하63(녹번동),37.6060390534435,126.922967946327
독바위,서울특별시 은평구 불광로 지하129-1(불광동),37.6183988849915,126.932810138476
구산,서울특별시 은평구 연서로 지하137-1(구산동),37.6112122196295,126.917182386796
새절,서울특별시 은평구 증산로 지하400(신사동),37.5918270544017,126.913911983591
증산,서울특별시 은평구 증산로 지하306(증산동),37.5841954778004,126.910057587886
월드컵경기장,서울특별시 마포구 월드컵로 지하240(성산동),37.569942569034,126.899033325814
마포구청,서울특별시 마포구 월드컵로 지하190(성산동),37.5634263131969,126.903356973848
망원,서울특별시 마포구 월드컵로 지하77(망원동),37.5560572923314,126.910033925408
상수,서울특별시 마포구 독막로 지하85(상수동),37.5477716665856,126.922409857908
광흥창,서울특별시 마포구 독막로 지하165(창전동),37.5474860706906,126.931939240491
대흥,서울특별시 마포구 대흥로 지하85(대흥동),37.5476683544726,126.942465251709
효창공원앞,서울특별시 용산구 백범로 지하287(효창동),37.5393766399926,126.961258439813
녹사평,서울특별시 용산구 녹사평대로 지하195(용산동4가),37.5348314193581,126.987028473368
이태원,서울특별시 용산구 이태원로 지하177(이태원동),37.534483277545,126.993721655506
한강진,서울특별시 용산구 이태원로 지하287(한남동),37.5402951544226,127.001748287649
버티고개,서울특별시 중구 다산로 지하38(신당동),37.5480418375007,127.007084969776
창신,서울특별시 종로구 지봉로 지하112(창신동),37.5800168892429,127.015211194258
안암,서울특별시 성북구 고려대로 지하89(안암동5가),37.5862804833256,127.029213030111
고려대,서울특별시 성북구 종암로 지하1(종암동),37.590649686622,127.036284948669
월곡,서울특별시 성북구 월곡로 지하107(하월곡동),37.6014210523409,127.041184766468
상월곡,서울특별시 성북구 화랑로 지하157(상월곡동),37.6062641394281,127.048326622029
돌곶이,서울특별시 성북구 화랑로 지하243(석관동),37.610550696559,127.056425217652
석계,서울특별시 노원구 화랑로 지하 347-1(월계동) ,37.6150480846952,127.066118430844
태릉입구,서울특별시 노원구 동일로 지하 992-1(공릉동),37.6185137762138,127.075368429731
화랑대,서울특별시 노원구 화랑로 지하510(공릉동),37.6198943887187,127.083744624338
봉화산,서울특별시 중랑구 신내로 지하232(신내동),37.6176537624438,127.090758129505
신내,서울특별시 중랑구 용마산로136길 33 신내차량기지,37.6100945305971,127.110257980303
장암,경기도 의정부시 동일로 121(장암동),37.7001189599459,127.053135359006
도봉산,서울특별시 도봉구 도봉로 964-40(도봉동),37.6891205614059,127.046528790935
수락산,서울특별시 노원구 동일로 지하1662(상계동),37.6776259369995,127.055374584266
마들,서울특별시 노원구 동일로 지하1530-1(상계동),37.6650864331785,127.057687709213
중계,서울특별시 노원구 동일로 지하1308-1(중계동),37.6448906789921,127.064246723057
하계,서울특별시 노원구 동일로 지하1196(하계동),37.6364521240646,127.067988537404
공릉,서울특별시 노원구 동일로 지하1074(공릉동),37.6254769202851,127.073005201049
먹골,서울특별시 중랑구 동일로 지하901(묵동),37.6106250591244,127.077764798784
중화,서울특별시 중랑구 동일로 지하797(중화동),37.6015796992834,127.079469204905
상봉,서울특별시 중랑구 망우로 297(상봉동),37.5967093285386,127.085741817289
면목,서울특별시 중랑구 면목로 지하407(면목동) ,37.5883848968931,127.087567841531
사가정,서울특별시 중랑구 사가정로 지하393(면목동),37.5807945533834,127.088439058456
용마산,서울특별시 중랑구 용마산로 지하227(면목동),37.5740302107904,127.087038114766
중곡,서울특별시 광진구 능동로 지하417(중곡동),37.5655258842084,127.084072412789
어린이대공원,서울특별시 광진구 능동로 지하210(화양동),37.547871203305,127.074549925093
뚝섬유원지,서울특별시 광진구 능동로 10(자양동),37.5315862608622,127.06671773793
청담,서울특별시 강남구 학동로 지하508(청담동),37.5194406566749,127.053644513011
강남구청,서울특별시 강남구 학동로 지하346(삼성동),37.5171892352971,127.04130142966
학동,서울특별시 강남구 학동로 지하180(논현동),37.5142064294604,127.031463762217
반포,서울특별시 서초구 신반포로 지하241(잠원동),37.5081263886404,127.011497032246
내방,서울특별시 서초구 서초대로 지하103(방배동),37.487533528504,126.993190309509
남성,서울특별시 동작구 사당로 지하218(사당동),37.4844433924857,126.971706096071
숭실대입구,서울특별시 동작구 상도로 지하378(상도동),37.4958143308836,126.954060246067
상도,서울특별시 동작구 상도로 지하272(상도1동),37.5032080456431,126.947700373641
장승배기,서울특별시 동작구 상도로 지하188(상도동) ,37.5046658024741,126.938744364462
신대방삼거리,서울특별시 동작구 상도로 지하76(대방동),37.4997218266711,126.928222967016
신풍,서울특별시 영등포구 신풍로 지하27(신길동),37.5001172036762,126.909841656125
남구로,서울특별시 구로구 도림로 지하7(구로동) ,37.4861618372855,126.887341021559
가산디지털단지,서울특별시 금천구 벚꽃로 309(가산동),37.4815957375443,126.882559483336
철산,경기도 광명시 철산로 지하13(철산동),37.4760980052319,126.868003853399
광명사거리,경기도 광명시 오리로 지하980(광명동),37.4793355805984,126.854703171044
천왕,서울특별시 구로구 오리로 지하1154(천왕동),37.4868219430207,126.838713741162
온수,서울특별시 구로구 경인로3길 지하64(온수동),37.4921502838112,126.823380714316
암사,서울특별시 강동구 올림픽로 지하776(암사동),37.5501403417224,127.127540246626
강동구청,서울특별시 강동구 올림픽로 지하550(성내동),37.5306740877124,127.12057605164
몽촌토성,서울특별시 송파구 올림픽로 지하383(신천동),37.5176236317445,127.112429917071
석촌,서울특별시 송파구 송파대로 지하439(석촌동),37.5059496431187,127.106345349428
송파,서울특별시 송파구 송파대로 지하354(가락동),37.4996866748478,127.112179893361
문정,서울특별시 송파구 송파대로 지하179(문정동),37.4862618233383,127.122290332976
장지,서울특별시 송파구 송파대로 지하82(장지동),37.4781192050612,127.126424204036
복정,서울특별시 송파구 송파대로 지하6(장지동),37.4710560005054,127.126771228018
남위례,경기도 성남시 수정구 공원로 601(복정동),37.4631031217002,127.139274613689
산성,경기도 성남시 수정구 수정로 지하365(신흥동),37.456524575777,127.149943523317
남한산성입구,경기도 성남시 수정구 산성대로 지하445(단대동),37.4515683423116,127.159802461468
단대오거리,경기도 성남시 수정구 산성대로 지하365(신흥동),37.4451431531719,127.156687885923
신흥,경기도 성남시 수정구 산성대로 지하280(신흥동),37.4411840785188,127.148107604929
수진,경기도 성남시 수정구 산성대로 지하200(수진동),37.4374594671775,127.1403519473
모란,경기도 성남시 수정구 산성대로 지하100(수진동),37.4338501673337,127.129551165797
개화,서울특별시 강서구 개화동로8길 19,37.577886100861,126.798211244431
공항시장,서울특별시 강서구 방화동로 지하30,37.5635555121815,126.810492268589
신방화,서울특별시 강서구 방화대로 지하301,37.5676833982563,126.816524550899
양천향교,서울특별시 강서구 양천로 지하341,37.5687611941006,126.840817845045
가양,서울특별시 강서구 양천로 지하485,37.5615542602435,126.854388254338
증미,서울특별시 강서구 양천로 지하560,37.5577194101414,126.861246868802
등촌,서울특별시 강서구 공항대로 지하529,37.5511171423354,126.864950041955
염창,서울특별시 강서구 공항대로 지하631,37.547059307287,126.875005005839
신목동,서울특별시 양천구 목동중앙로 지하217,37.5444916605385,126.882753513166
선유도,서울특별시 영등포구 양평로 지하124,37.5381315240488,126.893420460707
국회의사당,서울특별시 영등포구 국회대로 지하758,37.5280674292228,126.917885535023
노량진,서울특별시 동작구 노량진로 지하130,37.5135735646312,126.940826454376
노들,서울특별시 동작구 노량진로 지하238 (본동),37.5127787896024,126.95306410612
흑석,서울특별시 동작구 현충로 지하90 (흑석동),37.5090853155754,126.963570097818
구반포,서울특별시 서초구 신반포로 지하17,37.501449823532,126.987374882947
신반포,서울특별시 서초구 신반포로 지하105,37.503413718529,126.995898957444
사평,서울특별시 서초구 사평대로 지하285,37.5041589041223,127.015434196641
발곡,경기도 의정부시 장곡로 258,37.7269545528251,127.052908941655
회룡,경기도 의정부시 평화로 363,37.7244219058017,127.047218627472
범골,경기도 의정부시 신흥로 141,37.728747403498,127.043649029596
경전철의정부,경기도 의정부시 신흥로 237,37.7373431463936,127.043310096418
의정부시청,경기도 의정부시 의정로 69,37.7392078907237,127.034864302119
흥선,경기도 의정부시 호국로 1197,37.7432666295462,127.037053349533
의정부중앙,경기도 의정부시 호국로 1305,37.7436680886993,127.049589670912
동오,경기도 의정부시 장곡로 471,37.7453519760168,127.057012450441
새말,경기도 의정부시 장곡로 551,37.7488376974101,127.063762111992
경기도청북부청사,경기도 의정부시 장곡로 615,37.7507071490052,127.071551393517
효자,경기도 의정부시 부용로 159-40,37.7539440766791,127.077225877776
곤제,경기도 의정부시 천보로 173,37.7505466225613,127.08368808356
어룡,경기도 의정부시 충의로 125,37.7427365859508,127.085189527335
송산,경기도 의정부시 충의로 59,37.737285143275,127.087213913993
탑석,경기도 의정부시 충의로 20,37.7335003460275,127.088906706926
이매,경기도 성남시 분당구 성남대로 738,37.3956853431968,127.12824815972
삼동,경기도 광주시 순암로 451,37.4086317062163,127.203328416895
경기광주,경기도 광주시 광주역로 10 경기광주역사,37.3989035705428,127.253267286176
초월,경기도 광주시 초월읍 경충대로 1066,37.3733548531211,127.299991606989
곤지암,경기도 광주시 곤지암천로 333,37.3505527470996,127.346172963513
신둔도예촌,경기도 이천시 신둔면 남정로 55,37.3155669010162,127.405242869086
이천,경기도 이천시 이섭대천로 1063,37.2645759954677,127.442360451221
부발,경기도 이천시 부발읍 신아로 87,37.2598547047189,127.490363784678
세종대왕릉,경기도 여주시 능서면 양화로 877,37.2939375637031,127.570727128078
여주,경기도 여주시 교동로 80(교동 403-1),37.2824737567131,127.628678411071
수원,경기도 수원시 팔달구 덕영대로 924,37.2656768667795,127.000096053009
세류,경기도 수원시 권선구 정조로 387,37.2442506519983,127.014111849323
병점,경기도 화성시 떡전골로 97,37.2068017946815,127.033243427141
서동탄,경기도 오산시 외삼미로 15번길 75-60,37.1959264123992,127.052133990784
세마,경기도 오산시 세마역로 88,37.1869917898194,127.043062518202
오산대,경기도 오산시 청학로 236,37.1693006160923,127.063064763281
오산,경기도 오산시 오산동 역광장로 59,37.1458951784684,127.066844907861
진위,경기도 평택시 경기대로 1855,37.1099375555493,127.062366903315
송탄,경기도 평택시 신장동 송탄공원로 43,37.0752833781957,127.054299835138
지제,경기도 평택시 경기대로 777,37.0187847572567,127.070485287852
서정리,경기도 평택시 탄현로 51,37.0570033704623,127.053006355073
평택,경기도 평택시 평택로 51,36.9918974768998,127.083288658126
명학,경기도 안양시 만안구 만안로 20,37.3852171904558,126.935265701361
성환,충청남도 천안시 서북구 성환읍 성환1로 237-5 (성환리 449-490번지),36.9167500567322,127.126732155397
직산,충남 천안시 서북구 직산읍 천안대로 1471-33,36.8713897700414,127.143691456107
두정,충남 천안시 서북구 두정로 289(두정동 84-1),36.8329346310528,127.149020699344
천안,충남 천안시 동남구 대흥로 239(대흥동 57-1),36.8123208138282,127.146822493854
봉명,충남 천안시 동남구 차돌로 51(봉명동 20-2),36.8012573235829,127.135835679685
쌍용,충청남도 천안시 서북구 쌍용2동 426-3,36.793655090373,127.121594290099
아산,충남 아산시 배방읍 희망로 90(장재리 325-3),36.7920474174232,127.104115243093
탕정,충청남도 아산시 탕정면 한들물빛6로 11 (매곡리 1606번지),36.7877232410844,127.084447967937
배방,충남 아산시 배방읍 온천대로 1967,36.7775631745193,127.052904723378
온양온천,충남 아산시 온천대로 1496(온천동 56-9),36.7804682813951,127.003451110541
신창,충남 아산시 신창면 행목로 50,36.7694848050308,126.949921514343
광명,경기도 광명시 광명역로 21,37.4163635638303,126.884877197434
석수,경기도 안양시 만안구 경수대로 1431,37.4343424740399,126.902529209911
관악,경기도 안양시 만안구 경수대로 1273번길 46,37.4188017578979,126.909121118476
안양,경기도 안양시 만안구 만안로 232,37.4014349994721,126.92300270344
남영,서울시 용산구 한강대로 77길 25(갈월동),37.5405646005342,126.971332437837
용산,서울시 용산구 한강대로 23길 55(한강로 3가 40-999),37.5297718014452,126.964741503485
영등포,서울시 영등포구 경인로 846(영등포동 1가 618-496),37.5156680341198,126.907665995469
구로,서울시 구로구 구로중앙로 174,37.5024345090279,126.881491595821
독산,서울시 금천구 벚꽃로 115,37.4659873169402,126.889514168718
금천구청,서울시 금천구 시흥대로 63길 91,37.455609978438,126.894514076077
금정,경기도 군포시 군포로 750,37.3722878708479,126.943387264162
군포,경기도 군포시 군포역1길 27,37.354076121748,126.948484962089
당정,경기도 군포시 당정역로 91,37.3444543328447,126.948347418727
의왕,경기도 의왕시 철도박물관로 66(삼동),37.3211117738404,126.948383028902
성균관대,경기도 수원시 장안구 서부로 2149,37.3001863040678,126.972261050259
화서,경기도 수원시 팔달구 덕영대로 692,37.2848936747156,126.989199634131
회기,서울시 동대문구 회기로196(휘경동 317-101),37.5897442387671,127.058035421223
외대앞,서울시 동대문구 휘경로 27(이문동 360-5),37.5954136758127,127.063058800869
신이문,서울시 동대문구 한천로 472(이문로 7),37.604278644666,127.069577322142
광운대,서울시 노원구 석계로 98-2(광운대역),37.6230335564713,127.06176348127
월계,서울시 노원구 월계로 53길 40(월계2동 261),37.6321089404669,127.058729394991
녹천,서울시 도봉구 덕릉로 376(창동),37.6456959058103,127.050919992127
방학,서울시 도봉구 도봉로 150다길 3,37.6663490420969,127.044424667701
도봉,서울시 도봉구 도봉로 170길 2,37.6803629061562,127.045764016316
망월사,경기도 의정부시 회룡로 111(호원동),37.725963479768,127.046509519875
의정부,경기도 의정부시 평화로 525,37.7379901517646,127.045879450143
가능,경기도 의정부시 평화로 633,37.7483685951812,127.044220735748
녹양,경기도 의정부시 평화로 757(녹양동 973),37.7593972381027,127.042273911226
양주,경기도 양주시 평화로 919(남방동 94-1),37.7736548042753,127.044790945301
덕계,경기도 양주시 덕계로 126 (덕계동 209-5번지),37.8187729615258,127.056653419502
덕정,경기도 양주시 화합로 1356,37.844283985167,127.061969695022
지행,경기도 동두천시 평화로 2285(지행동),37.8918774567748,127.055664161171
동두천중앙,경기도 동두천시 동두천로 228(생연동 682),37.9018057802045,127.056238895955
보산,경기도 동두천시 평화로 2539(보산동),37.9143185033452,127.057237110508
동두천,경기도 동두천시 평화로 2687(동두천동 245-210),37.9278370541411,127.054940223638
소요산,경기도 동두천시 평화로 2925(상봉암동 126),37.947953996357,127.061213156402
임진강,경기도 파주시 문산읍 임진각로 115(문산읍),37.8885657915464,126.746995041436
운천,경기도 파주시 문산읍 통일로2033번길3,37.8799939467653,126.769972094965
가좌,서울시 서대문구 수색로 27(남가좌동),37.5688870324193,126.915149791265
서강대,서울시 마포구 서강로 지하118,37.5527051004675,126.934808313154
수색,서울시 은평구 수색로 261-1,37.5808147253405,126.895659201671
화전,경기도 고양시 덕양구 화랑로 53(화전동 183-10),37.6033139647057,126.868385382583
강매,경기도 고양시 덕양구 행신동 108-5,37.6124170870804,126.845066303327
행신,경기도 고양시 덕양구 행신동 충경로 124번지(행신2동 812),37.6152819539218,126.84349267417
능곡,경기도 고양시 덕양구 토당로 35(토당동 454-3),37.6189344509008,126.820864666736
곡산,경기도 고양시 일산동구 경의로 160(백석동),37.6455215922844,126.801703048195
백마,경기도 고양시 일산동구 경의로 318(풍동 482-8),37.6583237579557,126.794456622803
풍산,경기도 고양시 일산동구 경의로 486(풍동),37.6723127365476,126.786451209886
일산,경기도 고양시 일산서구 경의로 672,37.6821407179955,126.769478094594
탄현,경기도 고양시 일산서구 경의로 856(덕이동),37.6939232739143,126.761038902542
야당,경기도 파주시 소리천로 10 (야당동),37.7128499204904,126.761526821868
중랑,서울특별시 중랑구 중화동 321-37,37.595012523673,127.074833812483
망우,서울시 중랑구 망우로 55길 11-10,37.5992876153903,127.092756577852
양원,서울시 중랑구 송림길 147(망우동),37.606554361502,127.107921489043
지평,경기도 양평군 지평면 지평역길 32,37.4763755008819,127.630041823792
구리,경기도 구리시 건원대로 34번길 32-29(인창동 244-2),37.603333764096,127.143610890921
도농,경기도 남양주시 경춘로 433(도농동 56-1),37.6088256177708,127.161152955692
양정,경기도 남양주시 경강로 237(이패동 398-32),37.6040110360008,127.194607323013
덕소,경기도 남양주시 와부읍 덕소로 56 (덕소리),37.5868975781597,127.208819520604
도심,경기도 남양주시 와부읍 덕소로 237(도곡리 1024-2),37.5796327348454,127.222654178048
팔당,경기도 남양주시 와부읍 팔당로 107번길,37.546890022725,127.243831432648
운길산,경기도 남양주시 조안면 운길산로 20 (진중리),37.5548032008651,127.309850206074
양수,경기도 양평군 양서면 목왕로 55-10,37.5457522473669,127.328842901585
신원,경기도 양평군 양서면 신원역길 5-4,37.5255305127415,127.372518999221
국수,경기도 양평군 양서면 국수역길 45,37.5159971877418,127.399469211218
아신,경기도 양평군 옥천면 아신역1길 23,37.5136938387664,127.443105656936
오빈,경기도 양평군 양평읍 덕바위길 29번길,37.5034201426364,127.472779337041
원덕,경기도 양평군 양평읍 원덕흑천길 94-22,37.4689980743792,127.548481848278
용문,경기도 양평군 용문면 용문역길 18,37.4828215032131,127.593964601093
운정,경기도 파주시 운정역길 368(야당동 299-4번지),37.7254220154625,126.766908191096
금릉,경기도 파주시 금릉역로 85 (금촌동),37.7522266074194,126.765044092685
금촌,경기도 파주시 새꽃로 193,37.7655567434097,126.773936400512
월롱,경기도 파주시 월롱면 통일로 980,37.7961431510064,126.792204696676
파주,경기도 파주시 파주읍 주라위길 38,37.8151635252393,126.792604079404
문산,경기도 파주시 문산읍 문산역로 94,37.854588695275,126.787595361922
대곡,경기도 고양시 덕양구 대주로 107번길 71-81(대장동 420-1),37.6318206316005,126.810602730178
서빙고,서울시 용산구 서빙고로 238(서빙고동 241-11),37.5199555398566,126.990048630943
한남,서울시 용산구 독서당로6길 12-13(한남동),37.5291881521046,127.008249820572
응봉,서울시 성동구 고산자로 123(응봉동),37.5504482266748,127.034927944532
구일,서울시 구로구 구일로 133,37.4963911827294,126.869920428658
개봉,서울시 구로구 경인로 40길 47,37.4945222528654,126.859102583368
오류동,서울시 구로구 경인로 20길 13,37.494359185399,126.844600701673
역곡,경기도 부천시 원미구 역곡로 1(역곡동),37.4852888314378,126.811871466794
소사,경기도 부천시 소사구 경인로 363,37.4824529147477,126.796018552602
부천,경기도 부천시 소사구 부천로 1,37.4840369248427,126.782649695027
중동,경기도 부천시 소사구 중동로 73,37.4866184306426,126.764292213307
송내,경기도 부천시 소사구 송내대로 43,37.4876747409104,126.752771844443
부개,인천시 부평구 수변로 22,37.4883181353962,126.740251327956
백운,인천시 부평구 마장로 55번길 14,37.4832252226726,126.70727338322
동암,인천시 부평구 동암광장로 10,37.4710056673671,126.702935214739
간석,인천시 남동구 석정로 522-14,37.4646879052409,126.693451172704
도화,인천시 미추홀구 숙골로 24번길 9,37.4661106428252,126.668375888234
제물포,인천시 미추홀구 경인로 129,37.466803102521,126.656869633392
도원,인천시 동구 참외전로 245,37.468791983109,126.642404388038
동인천,인천시 중구 참외전로 119,37.4759574845683,126.631750522383
인천,인천시 중구 제물량로 269,37.4765938446837,126.617089760956
갈매,경기도 구리시 갈매동 경춘북로 229(갈매동 502-18),37.6339772561856,127.114708032421
별내,경기도 남양주시 별내동 182-5,37.6421997379186,127.12726521217
퇴계원,경기도 남양주시 퇴계원면 경춘북로 545(퇴계원리 218-8),37.6482373139625,127.144404953155
사릉,경기도 남양주시 진건읍 진건우회로 63 (사능리 605-3),37.6515252056783,127.17693293409
금곡,경기도 남양주시 경춘로 903(금곡동 404-276),37.6332724810872,127.202628598035
평내호평,경기도 남양주시 경춘로 1375(평내동 156),37.6532330134255,127.244434272129
천마산,경기도 남양주시 화도읍 묵현리 320-25,37.6595591008046,127.285603649115
마석,경기도 남양주시 화도읍 마석중앙로 107 (마석우리 222-2),37.6523558892506,127.311850178148
대성리,경기도 가평군 청평면 경춘로 88(대성리 393),37.6840857391866,127.379235925376
청평,경기도 가평군 청평면 청평역로 97-33(청평리 125-1),37.7355360346828,127.426649292956
상천,경기도 가평군 청평면 상천역로 29(상천리 1261),37.7701212332923,127.454481962908
가평,경기도 가평군 가평읍 문화로 13-42(달전리 567),37.8142501843797,127.511017051625
굴봉산,강원도 춘천시 남산면 서백길 192(백양리 588-30),37.8321010361171,127.557660392646
백양리,강원도 춘천시 남산면 북한강변길 690(강촌리 680-7),37.830833476156,127.589196393763
강촌,강원도 춘천시 남산면 강촌로 150(방곡리 409),37.8058064415298,127.634125952836
김유정,강원도 춘천시 신동면 김유정로 1435(신동면 증리 859-3),37.81963260788,127.716616948432
남춘천,강원도 춘천시 영서로 2260(퇴계동 633-2),37.8640443861226,127.723915185217
춘천,강원도 춘천시 공지로 591 (근화동 190),37.8846680007615,127.717003832754
서울숲,서울시 성동구 왕십리로 지하 77,37.5436182408959,127.044706934942
압구정로데오,서울시 강남구 압구정동 495(강남구 압구정로 지하 402),37.529440360849,127.041260327992
선정릉,서울시 강남구 선릉로 지하 580(삼성동),37.5108538860091,127.043641042222
한티,서울시 강남구 선릉로 지하 228,37.4962424687085,127.052882352599
구룡,서울시 강남구 개포동 175번지,37.4877508712393,127.058902040245
개포동,서울특별시 강남구 개포로 지하 420 (개포동),37.4892484725195,127.066474949768
대모산입구,서울특별시 강남구 개포로 지하 522 (일원동 703번지),37.4915453291369,127.07316864715
가천대,경기도 성남시 수정구 태평1동 5113-9,37.4489646883029,127.127142141828
태평,경기도 성남시 수정구 성남대로 지하 1229번지,37.4398906358669,127.127671669567
야탑,경기도 성남시 성남대로 지하 903(야탑동 688-1),37.411051183903,127.12872651224
서현,경기도 성남시 분당구 성남대로 지하 601,37.3850142562829,127.123430800216
수내,경기도 성남시 분당구 성남대로 지하 491(수내동),37.3784524525527,127.114295370128
오리,경기도 성남시 분당구 성남대로 지하 55(구미동 795),37.3399767000124,127.108947909824
죽전,경기도 용인시 수지구 포은대로 536(죽전동 1014),37.3250029632519,127.108105699045
보정,경기도 용인시 수지구 포은대로 536(죽전동 1014),37.3250029632519,127.108105699045
구성,경기도 용인시 기흥구 용구대로 2403,37.2988793074736,127.105772956042
신갈,경기도 용인시 기흥구 기흥로 136,37.286222191892,127.111247645105
상갈,경기도 용인시 기흥구 금화로 지하 40,37.2618298132945,127.108877632339
청명,경기도 수원시 영통구 봉영로 지하 1670,37.2595060450476,127.078981816646
영통,경기도 수원시 영통구 봉영로 지하 1560,37.2514466747718,127.071296921866
망포,경기도 수원시 영통구 덕영대로 지하 1520 (영통동),37.2456841497125,127.057336156052
매탄권선,경기도 수원시 권선구 권선동 1308번지,37.2496541911308,127.040436063804
수원시청,경기도 수원시 권선구 권선동 1122,37.2609055800354,127.031319421846
매교,경기도 수원시 팔달구 매교동 173-22,37.2654547365162,127.016173497897
고색,경기도 수원시 권선구 매송고색로 지하690(고색동),37.2497641029802,126.980512216022
오목천,경기도 수원시 권선구 삼천병마로 지하 1570 (오목천동 472-3),37.2433708193918,126.963947123606
어천,경기도 화성시 매송면 어천역길 8,37.2501194651188,126.908785661434
야목,경기도 화성시 매송면 본오매송로 286(야목리),37.2611984735928,126.88411915315
사리,경기도 안산시 상록구 충장로 103 (사동),37.2908856912992,126.857182474188
한대앞,경기도 안산시 상록구 충장로 337,37.310138887688,126.853604115068
중앙,경기도 안산시 단원구 중앙대로 918,37.3160120851693,126.838496502051
고잔,경기도 안산시 상록구 충장로 337,37.310138887688,126.853604115068
초지,경기도 안산시 단원구 중앙대로 620,37.3206930878552,126.805905689102
안산,경기도 안산시 단원구 중앙대로 620,37.3206930878552,126.805905689102
신길온천,경기도 안산시 단원구 중앙대로 462,37.3279773719144,126.787289454372
정왕,경기도 안산시 단원구 황고개로 2,37.3375787569365,126.767149151692
오이도,경기도 시흥시 역전로 430,37.3619270024133,126.738463594077
달월,경기도 시흥시 서해안로 736번길 55(월곶동),37.3798590670709,126.745771786914
월곶,경기도 시흥시 월곶 중앙로 14번길,37.3908170312727,126.742529746629
소래포구,인천시 남동구 소래역로 51,37.4009287634109,126.733519454146
인천논현,인천시 남동구 청능대로 567,37.4006702911636,126.722563735787
호구포,인천시 남동구 호구포로 205,37.4016559405807,126.708639070703
남동인더스파크,인천광역시 남동구 고잔동 970-14,37.4071199316831,126.694692825365
연수,인천시 연수구 벚꽃로 115,37.4178036012082,126.678963980409
송도,인천시 연수구 비류대로 175(옥련동),37.429936352757,126.654627246887
인하대,인천시 미추홀구 용현동 294-3,37.448211740425,126.649971611338
숭의,인천시 미추홀구 인주대로 지하6,37.4603808978026,126.63875878501
신포,인천시 중구 사동 26-19,37.4683932257932,126.625173241416
선바위,경기도 과천시 중앙로 440,37.4518723418033,127.001363325574
경마공원,경기도 과천시 경마공원대로 105,37.4441407439838,127.008051189437
대공원,경기도 과천시 대공원대로 지하 50 (과천동),37.4357353154423,127.005564107175
과천,경기도 과천시 별양로 지하 177,37.4334527847941,126.997456834042
정부과천청사,경기도 과천시 중앙로 지하 100,37.4259969407168,126.990186147038
인덕원,경기도 안양시 동안구 흥안대로 529,37.4015080484355,126.976688773261
평촌,경기도 안양시 동안구 부림로 지하 123,37.3944955073661,126.963866284332
범계,경기도 안양시 동안구 동안로 지하 130,37.38973437119,126.950983854413
산본,경기도 군포시 번영로 504,37.3581051591978,126.933175158373
수리산,경기도 군포시 번영로 385,37.350128811081,126.92549018064
대야미,경기도 군포시 대야1로 28,37.3283278084294,126.917178861076
반월,경기도 안산시 상록구 건건로 119-10,37.3120043860232,126.903795028845
상록수,경기도 안산시 상록구 상록수로 61,37.3029804927532,126.865417356052
삼송,경기도 고양시 덕양구 삼송로 205번길(삼송동 20-14),37.6550162726238,126.896562231497
원흥,경기도 고양시 덕양구 원흥동 569-15,37.6509206996283,126.873307347639
원당,경기도 고양시 덕양구 고양대로 1429 (성사동 410-7번지),37.6534333656508,126.843104741837
화정,경기도 고양시 덕양구 화정로 60 (화정동 1098번지),37.6345077843042,126.832630042005
백석,경기도 고양시 일산동구 중앙로 1042,37.6431608335662,126.788171623016
마두,경기도 고양시 일산동구 중앙로 지하 1180(마두동),37.6523303524635,126.778195968273
정발산,경기도 고양시 일산동구 마두 1동 1123(일산동구 중앙로 1270),37.6589801992463,126.773725939404
주엽,경기도 고양시 일산서구 중앙로 1432(주엽동 166-7),37.6704315940863,126.761046013417
대화,경기도 고양시 일산서구 중앙로 1569(대화동 2221),37.675954868441,126.747305098166
소새울,경기도 부천시 소사로 지하 284,37.4831691271686,126.794978451317
시흥대야,경기도 부천시 소사로 지하 120,37.468489118864,126.79718872876
신천,경기도 시흥시 서해안로 지하 1670,37.4504968820336,126.793161546388
신현,경기도 시흥시 신현로 12번길 지하 2-10,37.4095707560714,126.787805821706
시흥시청,경기도 시흥시 시흥대로 지하 467,37.3814327087701,126.805963785046
시흥능곡,경기도 시흥시 시흥대로 지하 327,37.3698949824471,126.80871289137
달미,경기도 안산시 단원구 순환로 지하 160,37.349068688284,126.808952529116
선부,경기도 안산시 단원구 선부광장서로 42,37.3329390400258,126.805051368864
시우,경기도 안산시 단원구 동산로 지하 50,37.3130451088515,126.79593557101
원시,경기도 안산시 단원구 산단로 지하 70 (원시동),37.3019944473115,126.786725377711
이수,서울특별시 동작구 사당로 지하310(사당동),37.485015143952,126.981021812089
언주,서울특별시 강남구 봉은사로 지하201(논현동),37.5074454982119,127.034284713238
삼성중앙,서울특별시 강남구 봉은사로 지하501(삼성동),37.5128830348855,127.052705651591
봉은사,서울특별시 강남구 봉은사로 지하601(삼성동),37.5143606191744,127.060891874786
삼전,서울특별시 송파구 백제고분로 지하189(잠실동),37.504501913851,127.087445571156
석촌고분,서울특별시 송파구 백제고분로 지하274(삼전동),37.5024703189666,127.096703734242
송파나루,서울특별시 송파구 백제고분로 지하446(방이동),37.5106316985927,127.112393866995
한성백제,서울특별시 송파구 위례성대로 지하29(방이동),37.5164647953901,127.116303251765
둔촌오륜,서울특별시 강동구 강동대로 지하303(둔촌동),37.5194242486054,127.138427332482
중앙보훈병원,서울특별시 강동구 동남로 지하625(둔촌동),37.5288957241892,127.148541966332
쌍용동,충청남도 천안시 서북구 쌍용19로 20,36.793724274634,127.1213503702
평택지제,경기도 평택시 경기대로 777,37.0187847572567,127.070485287852
도라산,경기도 파주시 장단면 희망로 307(노상리),37.8988518411828,126.709629531242
서울역,서울시 중구 통일로 1,37.5560581817344,126.972115894161
개운포,울산광역시 남구 산업로 133,35.5076156322014,129.320952440028
거제,부산광역시 연제구 법원남로9번길 17,35.1895110545428,129.074289798203
거제해맞이,부산광역시 연제구 거제대로 123,35.1811704174524,129.068996371984
기장,부산광역시 기장군 기장읍 차성로288번길 86,35.243815709882,129.218740173832
남창,울산광역시 울주군 온양읍 남창리 42-36,35.4185132790352,129.282552192062
덕하,울산광역시 울주군 청량읍 덕하로 229,35.493751556952,129.303549815497
동래,부산광역시 동래구 낙민로 27,35.1973205059373,129.091141148215
망양,울산광역시 울주군 온양읍 망양리 484-1,35.4568340815661,129.287859425669
벡스코,부산광역시 해운대구 해운대로 351,35.1715544460081,129.136096935843
부산원동,부산광역시 동래구 안락동52-2,35.1938076703922,129.11346133472
부전,부산광역시 부산진구 부전로 181,35.1640421327974,129.060506292678
서생,울산광역시 울주군 서생면 화산발리로 1,35.3461267934052,129.293302611307
센텀,부산광역시 해운대구 해운대로 210,35.1794517547326,129.124592580199
신해운대,부산광역시 해운대구 장산로 427,35.1816969257961,129.177032353897
안락,부산광역시 동래구 안연로98번길 57,35.1960206246922,129.100549414816
오시리아,부산광역시 기장군 기장읍 동부산관광5로 14,35.1962172977472,129.208261122077
월내,부산광역시 기장군 장안읍 해맞이로 351-31,35.3279031956242,129.276513273439
일광,부산광역시 기장군 일광읍 일광로 111-10,35.2674453139922,129.233116919565
재송,부산광역시 해운대구 해운대로 100,35.1882250168273,129.120431001987
좌천,부산광역시 기장군 장안읍 좌천리 239-4,35.3117885630404,129.245153674671
태화강,울산광역시 남구 산업로 654,35.5383548270265,129.353666998283
검암,인천광역시 서구 검바위로 26 (검암동),37.569030447138,126.673541984078
계양,인천광역시 계양구 다남로 24 (귤현동),37.5716093704302,126.736023400683
공덕,서울특별시 마포구 마포대로 92 (도화동 25-13번지),37.5428436189268,126.95133595616
공항화물청사,인천광역시 중구 공항동로135번길 86 (운서동),37.4590307212448,126.477437882407
김포공항,서울특별시 강서구 하늘길 지하 77 (방화동 744번지),37.562313207852,126.801278424065
디지털미디어시티,서울특별시 마포구 성암로 지하 184 (상암동 1140번지),37.5768239035855,126.899020186183
서울,서울특별시 용산구 청파로 378 (동자동 43-205번지),37.549118478341,126.970484281315
운서,인천광역시 중구 흰바위로59번길 26 (운서동),37.4928503236659,126.493665547285
인천국제공항,인천광역시 중구 공항로 272 (운서동),37.458350712273,126.427699293474
청라국제도시,인천광역시 서구 에코로 151 (청라동),37.5551403000306,126.625410973856
홍대입구,서울특별시 마포구 양화로 지하188 (동교동 166-1번지),37.5574452272604,126.926778735002
